City_ID,City,Lat,Lng,Max Temp,Humidity,Cloudiness,Wind Speed,Country,Date
0,tsiombe,-25.3,45.4833,293.44,96,4,2.8,Tsiombe,1686078027
1,port alfred,-33.5906,26.891,290.74,41,0,3.27,Port Alfred,1686078027
2,opuwo,-18.0607,13.84,291.86,27,0,1.92,Opuwo,1686078027
3,edinburgh of the seven seas,-37.0676,-12.3116,285.95,66,97,8.73,Edinburgh of the Seven Seas,1686078027
4,antalaha,-14.9003,50.2788,295.92,86,0,3.31,Antalaha,1686078028
5,severo-yeniseyskiy,60.3725,93.0408,286.67,97,0,1.85,Severo-Yeniseyskiy,1686078028
6,grytviken,-54.2811,-36.5092,275.78,97,97,1.98,Grytviken,1686078028
7,harper,4.375,-7.7169,298.88,88,100,4.48,Harper,1686078028
8,telhara,21.0269,76.8389,307.88,28,79,5.03,Telhāra,1686078029
9,selkirk,50.1436,-96.8845,304.88,57,61,1.79,Selkirk,1686077770
10,kasungu,-13.0333,33.4833,290.4,70,6,2.19,Kasungu,1686077956
11,pudasjarvi,65.3833,26.9167,281.08,71,100,2.6,Pudasjärvi,1686078029
12,college,64.8569,-147.8028,295.42,41,20,0.94,College,1686078029
13,port-aux-francais,-49.35,70.2167,275.68,77,100,9.28,Port-aux-Français,1686077900
14,yellowknife,62.456,-114.3525,282.44,100,100,7.72,Yellowknife,1686078029
15,kayangel,8.0823,134.7173,301.73,80,100,8.44,Kayangel,1686078030
16,mata-utu,-13.2816,-176.1745,300.82,79,40,5.79,Mata-Utu,1686078030
17,korhogo,9.45,-5.6333,302.03,58,91,1.35,Korhogo,1686078030
18,ust-nera,64.5667,143.2,281.96,87,100,3.75,Ust-Nera,1686078030
19,west island,-12.1568,96.8225,298.14,83,75,5.66,West Island,1686078030
20,olomouc,49.5955,17.2518,291.69,90,100,1.71,Olomouc,1686078031
21,puerto natales,-51.7236,-72.4875,278.44,69,81,6.09,Puerto Natales,1686078031
22,ilulissat,69.2167,-51.1,272.16,100,75,2.57,Ilulissat,1686078031
23,thompson,55.7435,-97.8558,298.68,66,100,3.04,Thompson,1686078031
24,stanley,54.868,-1.6985,284.55,81,75,2.06,Stanley,1686078031
25,baharly,38.4362,57.4316,305.75,19,13,2.96,Baharly,1686078031
26,puerto ayora,-0.7393,-90.3518,297.9,98,79,3.13,Puerto Ayora,1686078032
27,ribeira grande,38.5167,-28.7,293.37,64,40,7.72,Ribeira Grande,1686078032
28,bethel,41.3712,-73.414,296.08,56,42,1.34,Bethel,1686078032
29,margaret river,-33.95,115.0667,285.02,70,100,8.83,Margaret River,1686078033
30,ushuaia,-54.8,-68.3,276.21,96,51,1.46,Ushuaia,1686078033
31,ketchikan,55.3422,-131.6461,286.05,68,100,1.46,Ketchikan,1686078033
32,hojo,33.9766,132.7777,290.64,96,9,0.84,Hōjō,1686078033
33,nemuro,43.3236,145.575,283.66,92,100,4.42,Nemuro,1686078033
34,dudinka,69.4058,86.1778,283.32,61,8,2.95,Dudinka,1686078033
35,egilsstadir,65.2653,-14.3948,282.19,71,99,2.36,Egilsstadir,1686078034
36,bredasdorp,-34.5322,20.0403,283.14,72,23,0.5,Bredasdorp,1686078034
37,kimbe,-5.5502,150.1429,297.09,93,100,1.28,Kimbe,1686078034
38,blackmans bay,-43.0167,147.3167,284.12,95,6,3.01,Blackmans Bay,1686078034
39,kodiak,57.79,-152.4072,279.88,100,100,5.66,Saint Paul Harbor,1686078034
40,mount gambier,-37.8333,140.7667,285.56,90,99,4.29,Mount Gambier,1686078034
41,waimea,20.0231,-155.6717,296.18,76,27,1.34,Waimea,1686078035
42,albany,42.6001,-73.9662,292.56,66,90,2.68,Albany,1686077974
43,oroqen zizhiqi,50.5667,123.7167,281.81,94,100,2.11,Alihe,1686078035
44,gadzhiyevo,69.2551,33.3362,277.18,69,100,7.09,Gadzhiyevo,1686078035
45,choibalsan,48.0667,114.5,283.23,58,12,7.84,Choibalsan,1686078036
46,chibougamau,49.9168,-74.3659,288.94,33,75,6.17,Chibougamau,1686078036
47,nagqu,31.5,92.0,280.18,51,100,3.2,Nagqu Prefecture,1686078036
48,karratha,-20.7377,116.8463,291.03,48,54,5.23,Karratha,1686078036
49,saint-pierre,-21.3393,55.4781,294.97,78,0,2.57,Saint-Pierre,1686078006
50,hami,42.8,93.45,299.11,18,0,2.77,Kumul,1686078036
51,yichang,30.7144,111.2847,293.06,77,63,1.45,Yichang,1686077926
52,tiksi,71.6872,128.8694,275.0,95,52,1.33,Tiksi,1686077916
53,pandan,14.0453,124.1694,299.82,85,100,1.58,Pandan,1686078037
54,juneau,58.3019,-134.4197,283.27,98,100,1.84,Juneau,1686077814
55,zubtsov,56.1753,34.5894,285.35,69,38,2.02,Zubtsov,1686078037
56,saint-peray,44.95,4.8333,295.59,64,40,1.08,Saint-Péray,1686078037
57,sona,45.4388,10.8255,294.03,73,40,2.57,Sona,1686078038
58,hasaki,35.7333,140.8333,292.16,94,83,5.98,Hasaki,1686078038
59,vorgashor,67.5833,63.95,280.6,85,100,3.93,Vorgashor,1686078038
60,shenjiamen,29.9576,122.298,293.03,92,81,2.95,Shenjiamen,1686078038
61,antofagasta,-23.65,-70.4,291.75,68,38,2.86,Antofagasta,1686077767
62,hawaiian paradise park,19.5933,-154.9731,299.2,82,100,2.2,Hawaiian Paradise Park,1686078039
63,iqaluit,63.7506,-68.5145,279.65,70,11,5.36,Iqaluit,1686078039
64,laojunmiao,39.8333,97.7333,288.69,29,0,1.75,Laojunmiao,1686078039
65,rosarito,32.3333,-117.0333,292.3,56,57,3.62,Rosarito,1686078039
66,weining,26.85,104.2333,288.57,89,99,1.38,Weining,1686078040
67,oranjemund,-28.55,16.4333,286.7,78,0,3.28,Oranjemund,1686078040
68,minas de marcona,-15.2119,-75.1103,292.66,55,1,4.46,Minas de Marcona,1686078040
69,vilyuchinsk,52.9306,158.4028,282.3,85,79,2.98,Vilyuchinsk,1686077503
70,pangody,65.85,74.4859,286.95,54,29,3.4,Pangody,1686078041
71,atafu village,-8.5421,-172.5159,301.47,75,27,4.88,Atafu Village,1686078041
72,saipan,15.1355,145.701,300.73,100,40,6.69,Saipan,1686078041
73,ulladulla,-35.35,150.4667,283.58,77,95,2.51,Ulladulla,1686078041
74,alice springs,-23.7,133.8833,292.9,52,59,1.54,Alice Springs,1686078041
75,muisne,0.6,-80.0333,300.03,85,55,4.18,Muisne,1686078042
76,klyuchi,52.2667,79.1667,295.71,45,71,2.92,Klyuchi,1686078042
77,san luis de la loma,17.2706,-100.8939,304.96,52,0,4.05,San Luis de la Loma,1686078042
78,badger,64.8,-147.5333,295.37,44,15,0.88,Badger,1686078042
79,nizhneudinsk,54.9076,99.0276,290.23,68,100,0.85,Nizhneudinsk,1686078042
80,papatowai,-46.5619,169.4708,277.95,87,51,2.1,Papatowai,1686078043
81,nyurba,63.2842,118.3319,275.95,80,6,1.36,Nyurba,1686078043
82,mossel bay,-34.1831,22.146,287.79,58,0,3.47,Mossel Bay,1686078043
83,adamstown,-25.066,-130.1015,294.27,57,41,7.57,Adamstown,1686078043
84,punta arenas,-53.15,-70.9167,280.21,65,0,9.77,Punta Arenas,1686077943
85,lakheri,25.6667,76.1667,308.06,22,7,1.5,Lākheri,1686078044
86,tomatlan,19.9333,-105.25,306.31,39,0,4.65,Tomatlán,1686078044
87,turpan,42.9333,89.1667,305.95,12,0,1.64,Turpan,1686078044
88,olonkinbyen,70.9221,-8.7187,274.27,69,100,1.75,Olonkinbyen,1686078044
89,hithadhoo,-0.6,73.0833,301.61,76,15,3.67,Hithadhoo,1686078044
90,adre,13.4667,22.2,294.99,81,100,10.09,Adré,1686078044
91,kazanskoye,55.6448,69.235,292.97,80,0,1.72,Kazanskoye,1686078045
92,arkhangel'sk,64.5401,40.5433,277.42,81,100,2.29,Arkhangelsk,1686077989
93,hamilton,39.1834,-84.5333,303.14,35,88,2.68,Hamilton,1686078045
94,chonchi,-42.6128,-73.8092,285.44,70,11,1.92,Chonchi,1686078045
95,daru,-9.0763,143.2092,298.66,92,100,4.96,Daru,1686078045
96,gamba,-2.65,10.0,296.29,88,100,2.74,Gamba,1686078045
97,buka,40.8108,69.1986,299.62,16,3,2.39,Bo`ka,1686078046
98,tazovsky,67.4667,78.7,283.91,70,100,4.39,Tazovsky,1686078046
99,kuytun,54.3419,101.5036,283.92,53,93,0.33,Kuytun,1686078046
100,whitehorse,60.7161,-135.0538,280.82,92,100,4.02,Whitehorse,1686078046
101,petropavlovsk-kamchatsky,53.0452,158.6483,281.48,61,75,2.0,Petropavlovsk-Kamchatskiy,1686077503
102,bilibino,68.0546,166.4372,281.98,59,100,1.32,Bilibino,1686078047
103,waitangi,-43.9535,-176.5597,283.05,69,100,6.09,Waitangi,1686078047
104,okhotsk,59.3833,143.3,279.1,73,68,1.85,Okhotsk,1686078047
105,maxixe,-23.8597,35.3472,295.33,90,0,3.04,Maxixe,1686078047
106,kruisfontein,-34.0033,24.7314,284.17,60,0,1.25,Kruisfontein,1686078048
107,kapuskasing,49.4169,-82.4331,293.72,21,0,5.51,Kapuskasing,1686078048
108,chekmagush,55.1319,54.6556,283.6,96,100,4.24,Chekmagush,1686078048
109,platon sanchez,21.2833,-98.3667,309.6,33,0,2.15,Platón Sánchez,1686078048
110,fuglafjordur,62.244,-6.814,282.41,81,10,4.93,Fuglafjørður,1686078050
111,shihezi,44.3,86.0333,298.44,14,0,2.75,Shihezi,1686078050
112,weno,7.4515,151.8468,301.22,79,100,3.72,Weno,1686078050
113,kharan,28.5833,65.4167,305.84,8,0,1.3,Kharan,1686078050
114,sault ste. marie,46.5168,-84.3333,293.69,29,0,3.42,Sault Ste. Marie,1686078013
115,hermanus,-34.4187,19.2345,286.19,63,100,1.01,Hermanus,1686078033
116,ghat,24.9647,10.1728,306.62,17,34,6.45,Ghat,1686078051
117,wailua homesteads,22.0669,-159.378,298.57,77,1,1.79,Wailua Homesteads,1686078051
118,xinmin,41.9908,122.8253,291.96,66,11,8.72,Xinmin,1686078051
119,la passe,45.5549,-0.8967,300.28,65,27,2.71,La Passe,1686078051
120,konstantinovka,49.6167,127.9833,283.45,90,32,1.42,Konstantinovka,1686078051
121,dire dawa,9.5931,41.8661,298.14,54,43,3.67,Dire Dawa,1686078052
122,nizhyn,51.048,31.8869,289.84,55,100,2.05,Nizhyn,1686078052
123,anadyr,64.75,177.4833,280.43,81,20,7.0,Anadyr,1686077760
124,yarmouth,41.7057,-70.2286,296.34,58,0,3.6,Yarmouth,1686078052
125,tofol,5.3248,163.0078,301.48,77,20,3.34,Tofol,1686078052
126,st. paul,44.9444,-93.0933,301.77,60,0,3.58,Saint Paul,1686078053
127,susuman,62.7833,148.1667,283.58,67,32,1.35,Susuman,1686078053
128,nadi,-17.8,177.4167,295.79,86,100,1.59,Nadi,1686078053
129,meizhou,24.2977,116.1072,297.8,98,99,0.75,Meizhou,1686078053
130,cannonvale,-20.2833,148.7,292.81,83,62,7.09,Cannonvale,1686078053
131,port mathurin,-19.6833,63.4167,297.94,68,0,9.55,Port Mathurin,1686078053
132,carutapera,-1.195,-46.02,300.75,80,90,3.68,Carutapera,1686078054
133,huarmey,-10.0681,-78.1522,297.9,69,8,4.17,Huarmey,1686078054
134,ataq,14.5377,46.8319,300.21,56,6,4.08,Ataq,1686078054
135,lorengau,-2.0226,147.2712,300.15,81,62,1.24,Lorengau,1686078054
136,acapulco de juarez,16.8634,-99.8901,304.93,52,2,4.1,Acapulco de Juárez,1686078055
137,saint-philippe,-21.3585,55.7679,294.92,82,36,4.17,Saint-Philippe,1686078055
138,georgetown,5.4112,100.3354,300.38,83,20,2.57,George Town,1686077927
139,sao jose da coroa grande,-8.8978,-35.1478,299.65,80,53,2.29,São José da Coroa Grande,1686078055
140,mumbwa,-14.9783,27.0619,290.51,35,0,2.19,Mumbwa,1686078055
141,nuevo ideal,24.8875,-105.0728,300.9,22,1,3.73,Nuevo Ideal,1686078056
142,revda,56.801,59.9303,284.74,96,100,4.19,Revda,1686078056
143,cromwell,41.5951,-72.6454,296.32,46,20,3.6,Cromwell,1686078056
144,avarua,-21.2078,-159.775,296.18,73,75,1.54,Avarua,1686078056
145,ambon,-3.6954,128.1814,301.41,77,40,2.06,Ambon City,1686078056
146,papao,-17.75,-149.55,299.97,73,99,6.49,Papao,1686078057
147,fisterra,42.9049,-9.2629,298.01,75,100,0.94,Finisterra,1686078057
148,port lincoln,-34.7333,135.8667,289.76,80,13,4.18,Port Lincoln,1686078057
149,nueva palestina,15.8,-92.75,304.71,46,24,1.49,Nueva Palestina,1686078057
150,alofi,-19.0595,-169.9187,298.23,74,98,9.58,Alofi,1686078057
151,cidreira,-30.1811,-50.2056,292.4,73,1,5.42,Cidreira,1686078058
152,altai,46.3722,96.2583,286.27,43,1,2.36,Altai,1686078058
153,tual,-5.6667,132.75,300.36,83,100,5.2,Tual,1686078058
154,katiola,8.1333,-5.1,298.4,82,100,1.62,Katiola,1686078058
155,east london,-33.0153,27.9116,290.56,39,0,2.42,East London,1686078013
156,magadan,59.5667,150.8,280.65,73,76,1.28,Magadan,1686077790
157,kroya,-7.6331,109.2461,298.06,89,92,4.33,Kroya,1686078059
158,eydhafushi,5.1033,73.0708,301.87,80,100,6.49,Eydhafushi,1686078059
159,ain sefra,32.75,-0.5833,298.31,34,100,3.1,Aïn Sefra,1686078059
160,enewetak,11.3474,162.3373,300.98,81,84,6.45,Enewetak,1686078059
161,ancud,-41.8697,-73.8203,283.74,75,18,3.05,Ancud,1686078059
162,leeton,-34.5667,146.4,285.42,90,69,4.73,Leeton,1686078060
163,fada n'gourma,12.0622,0.3578,305.89,42,87,7.91,Fada N'gourma,1686078060
164,luderitz,-26.6481,15.1594,285.7,87,0,5.35,Lüderitz,1686078022
165,qaqortoq,60.7167,-46.0333,276.09,89,100,0.46,Qaqortoq,1686078060
166,mariental,-24.6333,17.9667,291.16,8,0,5.34,Mariental,1686078005
167,anisoc,1.8658,10.7689,295.15,99,100,1.29,Añisoc,1686078060
168,kolokani,13.5728,-8.0339,311.62,18,100,2.17,Kolokani,1686078060
169,lib,8.3122,167.3766,301.18,78,100,6.54,Lib,1686078061
170,lompoc,34.6391,-120.4579,292.47,75,100,5.36,Lompoc,1686078061
171,muroto-misakicho,33.2833,134.15,293.37,83,57,3.33,Muroto-misakicho,1686078061
172,aasiaat,68.7098,-52.8699,272.64,86,100,2.48,Aasiaat,1686077998
173,urzhar,47.093,81.6294,295.51,29,61,2.17,Urzhar,1686078062
174,fort bragg,35.139,-79.006,303.61,55,75,3.6,Fort Bragg,1686078062
175,myitkyina,25.3833,97.4,298.19,84,34,0.71,Myitkyina,1686078062
176,polyarnyy,69.1989,33.4478,277.38,69,100,7.08,Polyarny,1686078062
177,mermoz boabab,14.7065,-17.4758,302.46,79,14,5.33,Mermoz Boabab,1686078063
178,aral,40.5156,81.2636,299.87,13,72,1.93,Aral,1686078063
179,esmeraldas,-19.7625,-44.3139,297.38,32,0,2.68,Esmeraldas,1686078063
180,gilgit,35.9221,74.3087,294.6,39,100,1.93,Gilgit,1686078063
181,moranbah,-22.0016,148.0466,287.31,96,4,4.54,Moranbah,1686078063
182,dongcun,36.7767,121.1597,292.57,62,100,1.55,Dongcun,1686078064
183,howard springs,-12.497,131.047,296.38,75,5,1.25,Howard Springs,1686078064
184,tura,25.5198,90.2201,300.35,54,0,1.93,Tura,1686078064
185,gabu,12.2833,-14.2167,309.47,26,19,1.56,Gabú,1686078064
186,la sarre,48.8002,-79.1996,291.57,27,0,6.98,La Sarre,1686078064
187,prince rupert,54.3161,-130.3201,285.94,69,100,2.76,Prince Rupert,1686078064
188,puerto lempira,15.2667,-83.7667,300.76,79,100,5.48,Puerto Lempira,1686078065
189,queenstown,-31.8976,26.8753,283.1,29,0,2.84,Queenstown,1686078065
190,porto novo,6.4965,2.6036,299.03,87,100,2.42,Porto-Novo,1686078065
191,udachny,66.4167,112.4,274.92,70,9,2.77,Udachny,1686078065
192,greater sudbury,46.49,-80.99,293.18,31,10,4.47,Greater Sudbury,1686078052
193,haiku-pauwela,20.9219,-156.3051,298.8,66,52,1.34,Haiku-Pauwela,1686078065
194,jamestown,42.097,-79.2353,296.22,39,0,3.58,Jamestown,1686078065
195,cockburn town,21.4612,-71.1419,302.16,76,81,4.09,Cockburn Town,1686078066
196,kavaratti,10.5669,72.642,302.92,75,88,8.14,Kavaratti,1686078066
197,jacksonville,30.3322,-81.6556,307.27,51,0,2.57,Jacksonville,1686078066
198,guozhen,34.3659,107.359,295.13,49,100,1.76,Guozhen,1686078066
199,sabang,5.8933,95.3214,301.59,77,100,11.19,Sabang,1686078066
200,longyearbyen,78.2186,15.6401,277.06,70,20,4.12,Longyearbyen,1686078015
201,seabra,-12.4186,-41.7703,300.58,37,64,3.64,Seabra,1686078067
202,fortuna,40.5982,-124.1573,287.66,87,75,3.09,Fortuna,1686078067
203,constantia,44.1833,28.65,288.54,66,80,5.0,Constanța,1686078047
204,utrik,11.2278,169.8474,300.78,84,85,8.47,Utrik,1686078067
205,matthew town,20.95,-73.6667,302.91,70,49,3.87,Matthew Town,1686078068
206,briare,47.6334,2.7438,295.71,68,1,4.57,Briare,1686078007
207,qianzhou,28.3167,109.7167,292.77,95,0,0.57,Jishou,1686078068
208,mouila,-1.8685,11.0559,296.95,93,100,1.18,Mouila,1686078068
209,mizdah,31.4451,12.9801,293.55,68,71,9.34,Mizdah,1686078068
210,kattivakkam,13.2167,80.3167,303.2,78,95,4.84,Kattivākkam,1686078068
211,batticaloa,7.7102,81.6924,301.56,77,100,1.61,Batticaloa,1686078068
212,lebu,-37.6167,-73.65,286.78,77,100,2.76,Lebu,1686078069
213,tchibanga,-2.85,11.0333,294.68,87,94,1.9,Tchibanga,1686078069
214,dauphin,51.1494,-100.0502,303.07,55,27,2.07,Dauphin,1686078069
215,revelstoke,50.9832,-118.2023,299.95,19,0,0.46,Revelstoke,1686078069
216,afaahiti,-17.75,-149.2833,299.08,76,100,6.75,Afaahiti,1686078070
217,invercargill,-46.4,168.35,275.43,92,56,1.75,Invercargill,1686078070
218,nuriootpa,-34.4833,139.0,288.98,81,94,3.89,Nuriootpa,1686078070
219,broken hill,-31.95,141.4333,290.55,82,100,6.2,Broken Hill,1686078070
220,yangchun,22.1667,111.7833,297.97,96,88,2.04,Yangchun,1686078070
221,celestun,20.8667,-90.4,302.91,65,63,5.37,Celestún,1686078070
222,swakopmund,-22.6833,14.5333,287.03,86,0,0.45,Swakopmund,1686078057
223,badeggi,9.05,6.15,299.59,76,92,2.15,Badeggi,1686078071
224,iskateley,67.6803,53.1512,277.88,84,98,6.38,Iskateley,1686078071
225,falmouth,50.1544,-5.0711,290.65,77,20,4.63,Falmouth,1686078071
226,veradale,47.6499,-117.2074,302.32,32,0,1.34,Veradale,1686078071
227,jesup,31.6074,-81.8854,304.11,40,40,2.06,Jesup,1686078071
228,gebeit,21.0667,36.3167,306.06,23,92,2.28,Gebeit,1686078072
229,katsuura,35.1333,140.3,291.16,93,99,3.34,Katsuura,1686078072
230,isangel,-19.55,169.2667,295.48,78,100,6.85,Isangel,1686078072
231,tefe,-3.3542,-64.7114,303.56,66,30,1.19,Tefé,1686078072
232,derry,54.9981,-7.3093,293.0,73,20,4.63,Londonderry,1686077988
233,elverum,60.8819,11.5623,289.46,47,96,3.82,Elverum,1686078073
234,ebon,4.582,168.6964,299.28,87,100,9.97,Ebon,1686078073
235,gerash,27.6652,54.1371,303.13,22,0,2.77,Gerāsh,1686078073
236,coquimbo,-29.9533,-71.3436,289.99,74,92,1.14,Coquimbo,1686078073
237,san pedro,14.35,121.0167,298.88,94,100,0.53,City of San Pedro,1686078073
238,nova sintra,14.8667,-24.7167,295.06,74,6,0.29,Nova Sintra,1686078074
239,malax,62.9423,21.5731,282.71,75,100,2.57,Maalahti,1686078074
240,dryden,49.7833,-92.7503,293.31,73,100,3.09,Dryden,1686078074
241,lira,2.235,32.9097,292.25,81,1,2.26,Lira,1686078074
242,arteche,12.2645,125.4048,298.68,88,30,1.69,Arteche,1686078074
243,moree,-29.4667,149.85,285.76,78,100,3.63,Moree,1686078075
244,goz beida,13.95,20.55,302.28,43,100,6.07,Goz Beida,1686078075
245,jinchang,38.4953,102.1739,290.98,33,100,2.81,Jinchang,1686078075
246,ugoofaaru,5.6667,73.0,301.97,81,77,5.89,Ugoofaaru,1686078075
247,namtsy,62.7161,129.6658,284.18,73,86,4.54,Namtsy,1686078076
248,conceicao do araguaia,-8.2578,-49.2647,304.46,43,5,1.18,Conceição do Araguaia,1686078076
249,bereket,39.2446,55.5154,299.84,54,100,7.32,Bereket,1686078076
250,thurgoona,-36.0451,146.9919,287.96,100,77,1.34,Thurgoona,1686078076
251,labytnangi,66.6572,66.4183,284.53,66,74,5.2,Labytnangi,1686078000
252,korla,41.7597,86.1469,298.73,24,21,3.37,Korla,1686078076
253,cidade velha,14.9167,-23.6167,299.41,69,0,2.57,Cidade Velha,1686078077
254,montmagny,48.9734,2.3469,298.35,43,0,5.14,Montmagny,1686078007
255,oneida,43.2001,-75.4663,291.93,72,100,4.63,Oneida,1686078077
256,juegang,32.3174,121.1855,291.67,92,57,3.18,Juegang,1686078077
257,aripuana,-9.1667,-60.6333,303.45,57,100,0.99,Aripuanã,1686078078
258,kapa'a,22.0752,-159.319,299.32,74,2,1.79,Kapaa,1686078078
259,zeya,53.75,127.2667,284.04,88,100,1.08,Zeya,1686078078
260,ta`u,-14.2336,-169.5144,300.64,75,97,10.16,Ta`ū,1686078078
261,thomson,33.4707,-82.5046,305.83,48,40,3.09,Thomson,1686078078
262,kerikeri,-35.2268,173.9474,285.32,91,100,2.68,Kerikeri,1686078079
263,capitan bado,-23.2667,-55.5333,296.23,59,0,4.0,Capitán Bado,1686078079
264,mirnyy,62.5353,113.9611,274.93,74,9,0.95,Mirny,1686078067
265,nabire,-3.3667,135.4833,297.37,91,100,1.32,Nabire,1686078079
266,port elizabeth,-33.918,25.5701,283.31,87,0,1.54,Port Elizabeth,1686078000
267,arraial do cabo,-22.9661,-42.0278,296.07,73,0,3.09,Arraial do Cabo,1686078079
268,ati,13.2154,18.3353,305.5,32,93,0.58,Ati,1686078080
269,jiazi,22.8779,116.067,299.62,88,81,2.08,Jiazi,1686078080
270,burutu,5.3509,5.5076,296.79,95,100,1.1,Burutu,1686078035
271,sisimiut,66.9395,-53.6735,273.25,83,99,4.14,Sisimiut,1686077997
272,hun,29.1268,15.9477,306.07,22,100,6.82,Hūn,1686078080
273,anori,-3.7728,-61.6442,305.65,51,61,1.89,Anori,1686078081
274,guerrero negro,27.9769,-114.0611,291.84,56,100,6.2,Guerrero Negro,1686078081
275,forster,-32.1667,152.5167,285.87,89,0,2.5,Forster,1686078081
276,scarborough,54.2797,-0.4044,284.91,86,95,0.89,Scarborough,1686078081
277,kiunga,-6.1219,141.2906,295.88,100,69,0.08,Kiunga,1686078082
278,shumikha,55.2261,63.2961,290.34,93,100,5.47,Shumikha,1686078082
279,madras,13.0878,80.2785,303.14,78,40,5.14,Chennai,1686077952
280,pisco,-13.7,-76.2167,293.72,77,2,4.78,Pisco,1686078082
281,namibe,-15.1961,12.1522,292.07,75,6,5.43,Mossamedes,1686078082
282,vadso,70.0744,29.7487,278.64,65,75,6.17,Vadsø,1686078082
283,moussoro,13.6408,16.4901,300.74,63,100,2.66,Moussoro,1686078083
284,toamasina,-18.1667,49.3833,296.15,94,75,1.03,Toamasina,1686077941
285,mwene-ditu,-7.0,23.45,296.83,46,100,1.57,Mwene-Ditu,1686078083
286,vilyuysk,63.7553,121.6247,277.02,83,9,1.96,Vilyuysk,1686078083
287,taoudenni,22.6783,-3.9836,310.5,13,0,3.63,Taoudenni,1686078083
288,naama,33.2667,-0.3167,296.95,32,100,1.8,Naama,1686078084
289,impfondo,1.6381,18.0667,298.52,74,37,1.11,Impfondo,1686078084
290,bardai,11.65,7.2333,299.37,69,100,3.69,Bardai,1686078084
291,n'dalatando,-9.2978,14.9116,293.65,80,100,1.39,N'dalatando,1686078084
292,menongue,-14.6585,17.691,290.07,37,1,1.78,Menongue,1686078084
293,trujillo,-8.116,-79.03,298.14,71,22,4.47,Trujillo,1686078085
294,uturoa,-16.7333,-151.4333,299.54,71,77,6.87,Uturoa,1686078085
295,khanty-mansiysk,61.0042,69.0019,288.21,62,0,0.0,Khanty-Mansiysk,1686077843
296,san jose de jachal,-30.2406,-68.7469,296.47,28,97,3.48,San José de Jáchal,1686078085
297,sandnessjoen,66.0217,12.6316,280.44,76,75,1.54,Sandnessjøen,1686078086
298,smithers,54.7804,-127.1743,284.33,50,0,2.06,Smithers,1686077894
299,wellington,-41.2866,174.7756,283.96,88,100,7.2,Wellington,1686077792
300,maraba,-5.3686,-49.1178,302.77,63,56,1.7,Marabá,1686078086
301,gizo,-8.103,156.8419,300.65,80,51,3.19,Gizo Government Station,1686078086
302,ust'-kut,56.7938,105.7672,279.16,68,85,0.63,Ust'-Kut,1686078087
303,pacific grove,36.6177,-121.9166,288.51,91,40,7.15,Pacific Grove,1686078087
304,codrington,-38.2667,141.9667,287.13,70,100,3.04,Codrington,1686078087
305,tobruk,32.0836,23.9764,294.77,75,65,6.92,Tobruk,1686078087
306,puerto baquerizo moreno,-0.9,-89.6,298.76,81,79,7.11,Puerto Baquerizo Moreno,1686078087
307,novodvinsk,64.4165,40.8122,277.18,82,100,2.18,Novodvinsk,1686078087
308,aldan,58.6031,125.3894,281.23,87,100,2.46,Aldan,1686078088
309,lanxi,29.2195,119.477,294.17,95,24,0.78,Lanxi,1686078088
310,kedougou,12.5579,-12.1743,309.89,23,87,2.14,Kédougou,1686078088
311,zhob,31.3411,69.4481,299.98,39,4,1.16,Zhob,1686078089
312,ulsteinvik,62.3432,5.8487,284.76,79,1,1.79,Ulsteinvik,1686078089
313,dolores,-36.3132,-57.6792,288.2,90,100,3.68,Dolores,1686078089
314,inverloch,-38.6333,145.7167,285.35,88,0,3.3,Inverloch,1686078089
315,iguape,-24.7081,-47.5553,295.04,75,9,2.13,Iguape,1686078089
316,soe,-9.8607,124.284,289.88,91,24,2.06,Soe,1686078090
317,bubaque,11.2833,-15.8333,300.81,72,100,7.3,Bubaque,1686078090
318,ocean shores,46.9737,-124.1563,299.51,55,0,2.06,Ocean Shores,1686078090
319,carloforte,39.145,8.3058,293.68,72,37,1.27,Carloforte,1686078090
320,murun-kuren,49.6342,100.1625,285.48,83,0,0.25,Mörön,1686078090
321,jiangyou,31.7667,104.7167,296.06,71,100,0.59,Jiangyou,1686078091
322,south hedland,-20.4089,118.5983,288.11,88,92,3.6,South Hedland,1686078091
323,san clemente del tuyu,-36.3569,-56.7235,289.81,90,100,5.09,San Clemente del Tuyú,1686078091
324,dubrovka,53.6907,33.5071,287.07,61,79,1.17,Dubrovka,1686078001
325,dawei,14.0833,98.2,298.87,93,100,3.44,Dawei,1686078091
326,colachel,8.1667,77.25,301.07,81,100,6.29,Colachel,1686078092
327,kem',64.9555,34.5793,278.45,69,50,2.61,Kem',1686078092
328,abaetetuba,-1.7181,-48.8825,300.94,83,55,2.05,Abaetetuba,1686078092
329,nogliki,51.8333,143.1667,279.2,77,98,1.49,Nogliki,1686078092
330,semporna,4.4818,118.6112,299.23,83,97,0.8,Semporna,1686078092
331,lihue,21.9789,-159.3672,298.91,77,3,3.88,Lihue,1686078092
332,olinda,-8.0089,-34.8553,302.0,74,75,3.6,Olinda,1686077967
333,nova vicosa,-17.8919,-39.3719,297.47,64,67,4.27,Nova Viçosa,1686078093
334,brezina,33.0989,1.2608,299.76,33,100,1.6,Brezina,1686078093
335,totness,5.8833,-56.3167,301.51,75,28,3.96,Totness,1686078093
336,saldanha,-33.0117,17.9442,285.91,66,1,2.36,Saldanha,1686078093
337,khadan khak,30.7477,67.7085,295.25,13,0,3.39,Khadan Khak,1686078093
338,kingston,17.997,-76.7936,306.62,69,100,3.13,Kingston,1686078094
339,tyukalinsk,55.8732,72.1967,292.49,72,3,3.27,Tyukalinsk,1686078094
340,danilovgrad,42.5538,19.1461,296.02,81,100,1.56,Danilovgrad,1686078094
341,salinopolis,-0.6136,-47.3561,301.7,71,18,4.36,Salinópolis,1686078094
342,ambleve,50.3514,6.1681,292.94,45,40,3.09,Amblève,1686078094
343,borgarnes,64.5383,-21.9206,281.93,71,100,2.56,Borgarnes,1686078095
344,ladan,50.5196,32.5818,290.04,61,100,0.75,Ladan,1686078095
345,baley,51.6,116.6333,276.81,96,46,1.53,Baley,1686078095
346,solnechnyy,50.7214,136.6319,284.14,82,100,1.23,Solnechnyy,1686078095
347,fada,9.5667,8.3,296.44,86,95,1.46,Fada,1686078095
348,flying fish cove,-10.4217,105.6791,297.97,78,75,5.14,Flying Fish Cove,1686078095
349,noosa heads,-26.3833,153.15,289.45,71,53,6.75,Noosa,1686078096
350,okha,53.5739,142.9478,279.5,89,78,3.19,Okha,1686078068
351,chumphon,10.3333,98.8333,296.67,93,100,2.62,Chumphon,1686078096
352,nuuk,64.1835,-51.7216,274.49,100,100,11.32,Nuuk,1686078096
353,barranca,-10.75,-77.7667,297.0,67,5,3.88,Barranca,1686078096
354,xining,36.6167,101.7667,283.33,87,100,0.59,Xining,1686078096
355,isafjordur,66.0755,-23.124,279.33,74,61,1.94,Isafjordur,1686078097
356,tocopilla,-22.092,-70.1979,293.34,68,15,3.18,Tocopilla,1686078097
357,sibulan,9.3584,123.285,299.62,82,32,1.83,Sibulan,1686078097
358,meraux,29.933,-89.9498,301.48,66,75,5.14,Meraux,1686078076
359,ajaccio,42.0,8.9167,292.14,68,0,1.54,Arrondissement d'Ajaccio,1686077932
360,vernon,50.2581,-119.2691,298.11,18,0,0.45,Vernon,1686078097
361,newman,37.3138,-121.0208,297.17,57,9,4.02,Newman,1686078098
362,san juan de miraflores,-12.1629,-76.9635,294.82,72,62,3.47,San Juan de Miraflores,1686078098
363,homnabad,17.7667,77.1333,306.97,26,99,0.92,Homnābād,1686078098
364,todos santos,23.45,-110.2167,296.19,58,5,4.83,Todos Santos,1686078098
365,sitka,57.0531,-135.33,283.36,84,98,0.45,Sitka,1686078098
366,wynyard,-41.0,145.7167,287.03,93,68,1.38,Wynyard,1686078098
367,sorong,-0.8833,131.25,298.97,88,100,3.14,Sorong,1686078099
368,chirilagua,13.2203,-88.1386,302.87,64,100,2.25,Chirilagua,1686078099
369,santo antonio,-6.3106,-35.4789,303.22,49,4,5.55,Santo Antônio,1686078099
370,bengkulu,-3.8004,102.2655,297.35,94,27,1.95,Bengkulu,1686078099
371,corral de bustos,-33.2821,-62.1846,294.06,76,100,3.9,Corral de Bustos,1686078099
372,kristiansund,63.1115,7.732,284.18,81,75,3.09,Kristiansund,1686078100
373,santa cruz de yojoa,14.9833,-87.9,301.44,61,100,1.48,Santa Cruz de Yojoa,1686078100
374,tiznit,29.5833,-9.5,298.47,30,69,3.78,Tiznit Province,1686078100
375,xinzhi,36.4989,111.7047,296.17,44,100,1.34,Xinzhi,1686078100
376,bogale,16.2833,95.4,299.67,82,100,2.15,Bogale,1686078100
377,strezhevoy,60.7333,77.5889,291.2,70,67,3.58,Strezhevoy,1686078101
378,mthatha,-31.5889,28.7844,283.96,46,0,2.2,Mthatha,1686078101
379,kolyvan',55.3053,82.7391,295.94,65,0,2.91,Kolyvan',1686078101
380,port victoria,0.0939,33.9756,296.26,68,85,2.19,Port Victoria,1686078101
381,mugia,43.1041,-9.2179,298.1,74,100,2.81,Mugia,1686078101
382,kodinsk,58.6881,99.1844,286.7,80,100,1.64,Kodinsk,1686077987
383,tvoroyri,61.5556,-6.8111,282.91,94,100,5.0,Tvøroyri,1686078102
384,iskushuban,10.2837,50.23,305.87,39,92,2.53,Iskushuban,1686078102
385,happy valley-goose bay,53.3168,-60.3315,280.32,81,75,7.72,Happy Valley-Goose Bay,1686078102
386,keflavik,64.0049,-22.5624,279.39,75,75,4.63,Keflavik,1686078065
387,dunedin,-45.8742,170.5036,280.26,80,100,1.34,Dunedin,1686077890
388,lusambo,-4.9667,23.45,297.7,67,84,0.35,Lusambo,1686078102
389,andkhoy,36.9529,65.1238,303.66,9,100,3.42,Andkhōy,1686078103
390,callao,-12.0667,-77.15,295.06,73,18,3.47,Callao,1686078103
391,conception bay south,47.4999,-52.9981,283.77,98,100,6.17,Conception Bay South,1686078103
392,ashburton,-37.8626,145.0794,289.61,87,7,3.13,Ashburton,1686078103
393,zhangjiakou shi xuanhua qu,40.6103,115.0447,294.58,32,8,1.01,Zhangjiakou Shi Xuanhua Qu,1686078104
394,kingscliff,-28.2667,153.5667,290.24,82,100,2.06,Kingscliff,1686078104
395,leava,-14.3,-178.1667,300.55,76,98,5.25,Leava,1686078104
396,seosan,36.7817,126.4522,289.08,96,83,2.63,Seosan City,1686078104
397,altamont,42.2068,-121.7372,299.76,39,40,2.57,Altamont,1686078104
398,alesund,62.4723,6.1549,284.76,81,75,2.06,Ålesund,1686078104
399,tahara,34.6667,137.2667,291.12,2,100,1.9,Tahara,1686078105
400,akranes,64.3218,-22.0749,279.46,73,99,4.69,Akranes,1686078105
401,potiskum,11.7091,11.0694,307.17,35,10,1.94,Potiskum,1686078105
402,uribia,11.7139,-72.266,307.48,47,100,7.9,Uribia,1686078105
403,igrim,63.1906,64.4162,285.82,66,92,2.5,Igrim,1686078105
404,monopoli,40.9559,17.2896,296.88,71,100,1.3,Monopoli,1686078105
405,nueva gerona,21.8833,-82.8,303.34,56,98,1.93,Nueva Gerona,1686078106
406,extrema,-22.8547,-46.3183,292.82,61,0,0.69,Extrema,1686078106
407,laminusa,5.5549,120.9136,301.82,74,91,1.18,Laminusa,1686078106
408,guarapari,-20.6667,-40.4975,297.53,69,63,3.31,Guarapari,1686078106
409,senador jose porfirio,-2.5908,-51.9542,301.31,76,55,1.77,Senador José Porfírio,1686078106
410,reggane,26.7158,0.1714,309.25,14,100,0.76,Reggane,1686078107
411,hirara,24.8,125.2833,299.21,84,1,5.37,Hirara,1686078107
412,hirtshals,57.5881,9.9592,286.73,79,0,1.19,Hirtshals,1686077865
413,nizhneangarsk,55.7833,109.55,276.7,74,88,3.72,Nizhneangarsk,1686078107
414,alpu,39.769,30.9606,290.99,61,10,1.42,Alpu,1686078107
415,el fasher,13.6279,25.3494,298.32,58,100,3.67,Al-Fashir,1686078107
416,saudarkrokur,65.7461,-19.6394,281.0,71,96,1.27,Sauðarkrokur,1686078090
417,naze,28.3667,129.4833,296.14,95,95,3.98,Naze,1686078108
418,altayskoye,51.9533,85.3325,290.12,79,0,2.98,Altayskoye,1686078108
419,palmares do sul,-30.2578,-50.5097,293.65,61,0,4.21,Palmares do Sul,1686078108
420,nema,57.5067,50.5011,285.05,80,100,2.25,Nema,1686078108
421,mlangali,-9.7833,34.5167,286.1,88,0,2.55,Mlangali,1686078108
422,carterton,51.759,-1.5944,287.82,74,100,6.17,Carterton,1686078109
423,geraldton,-28.7667,114.6,287.38,72,75,3.09,Geraldton,1686078109
424,warmbad,-28.45,18.7333,288.09,27,0,0.94,Warmbad,1686078012
425,bodaybo,57.8506,114.1933,279.24,97,100,1.34,Bodaybo,1686078020
426,paradip garh,20.3167,86.6167,303.24,73,97,3.77,Paradip,1686078109
427,tolanaro,-25.0319,46.9987,293.3,93,12,2.71,Tôlanaro,1686078109
428,sucua,-2.4667,-78.1667,294.56,94,100,5.14,Sucúa,1686078109
429,christchurch,-43.5333,172.6333,271.26,100,40,1.54,Christchurch,1686078037
430,camana,-16.6228,-72.7111,293.08,71,0,3.18,Camaná,1686078110
431,vikhorevka,56.1201,101.1636,283.92,51,94,1.39,Vikhorevka,1686078110
432,labrador city,52.9463,-66.9114,279.1,75,100,9.77,Labrador City,1686078110
433,taulaga,-11.0553,-171.0883,301.11,80,100,7.17,Taulaga,1686078110
434,yelizovo,53.1873,158.3805,282.23,61,75,2.0,Yelizovo,1686078020
435,bac lieu,9.285,105.7244,300.85,78,100,4.94,Bac Lieu,1686078110
436,fayzabad,37.1166,70.58,293.34,38,1,1.98,Fayzabad,1686078111
437,ivins,37.1686,-113.6794,305.35,8,0,1.79,Ivins,1686078111
438,el calafate,-50.3408,-72.2768,277.65,70,6,5.57,El Calafate,1686078096
439,palmer,42.1584,-72.3287,296.93,74,95,7.92,Palmer,1686078111
440,enriquillo,17.9,-71.2333,304.28,62,100,5.17,Enriquillo,1686078111
441,road town,18.4167,-64.6167,303.17,74,40,3.6,Road Town,1686078112
442,carbonear,47.7332,-53.2148,284.15,97,100,6.24,Carbonear,1686078112
443,muret,43.3333,1.25,295.6,79,3,1.6,Arrondissement de Muret,1686078005
444,dondo,-19.6094,34.7431,293.81,93,0,2.11,Dondo,1686078065
445,krasnokholm,51.5979,54.1567,284.91,75,0,6.48,Krasnokholm,1686078112
446,oyama,36.3,139.8,292.92,76,97,0.65,Oyama,1686078112
447,morehead city,34.7229,-76.726,300.38,74,12,6.26,Morehead City,1686078112
448,cururupu,-1.8283,-44.8683,301.67,70,12,2.44,Cururupu,1686078113
449,auki,-8.7676,160.7034,298.2,89,100,1.48,Auki,1686078113
450,gobabis,-22.45,18.9667,291.38,19,0,4.99,Gobabis,1686078113
451,badr hunayn,23.7829,38.7905,305.58,44,0,1.28,Badr Ḩunayn,1686078113
452,dazhou,31.2159,107.5009,294.88,83,100,1.29,Dazhou,1686078113
453,carnarvon,-24.8667,113.6333,291.97,58,70,5.38,Carnarvon,1686078114
454,changnyeong,35.5415,128.4951,288.82,94,0,1.03,Changnyeong,1686078114
455,tabas,33.5959,56.9244,308.04,14,100,2.75,Tabas,1686078114
456,puerto deseado,-47.7503,-65.8938,284.58,36,0,14.09,Puerto Deseado,1686078114
457,petropavlovka,50.6114,105.3196,284.29,67,11,2.82,Petropavlovka,1686078114
458,belmonte,-15.8631,-38.8828,298.27,64,61,4.75,Belmonte,1686078114
459,zdvinsk,54.7021,78.661,295.56,61,52,2.13,Zdvinsk,1686078115
460,saint-joseph,-21.3667,55.6167,294.36,81,26,3.91,Saint-Joseph,1686077939
461,el grao,39.798,-0.1321,297.73,67,40,2.23,El Grao,1686078115
462,acarau,-2.8856,-40.12,301.3,75,0,5.34,Acaraú,1686078115
463,antonio enes,-16.2325,39.9086,297.26,83,0,2.2,Angoche,1686078115
464,warren,39.4334,-84.1666,302.62,36,40,5.14,Warren,1686078116
465,sokur,55.2093,83.319,295.35,68,0,3.79,Sokur,1686078116
466,plettenberg bay,-34.0527,23.3716,286.89,54,0,1.66,Plettenberg Bay,1686077923
467,tilhar,27.9833,79.7333,304.06,30,0,3.11,Tilhar,1686078116
468,harstad,68.799,16.5293,278.81,100,100,1.79,Harstad,1686078116
469,ola,59.5833,151.2833,280.0,75,88,0.43,Ola,1686078116
470,goba,7.0167,39.9833,283.79,90,78,1.66,Goba,1686078116
471,remire-montjoly,4.9167,-52.2667,303.17,66,70,6.17,Rémire-Montjoly,1686078117
472,encheng,22.1839,112.3026,298.25,97,100,1.9,Encheng,1686078117
473,talnakh,69.4865,88.3972,278.53,83,31,3.24,Talnakh,1686078117
474,southport,53.6478,-3.0065,291.2,55,0,5.66,Southport,1686078117
475,san antonio de pale,-1.4014,5.6325,298.63,82,100,5.07,San Antonio de Palé,1686078117
476,dakoutun,39.5833,117.2289,296.99,21,2,2.35,Dakoutun,1686078118
477,pontianak,-0.0333,109.3333,297.19,96,100,1.38,Pontianak,1686078118
478,babayevo,59.3936,35.9371,282.06,61,77,1.41,Babayevo,1686078118
479,south venice,27.0531,-82.4243,305.96,62,0,4.63,South Venice,1686078118
480,novozybkov,52.5396,31.9275,289.59,73,0,2.35,Novozybkov,1686078119
481,vega de alatorre,20.0333,-96.6333,302.3,68,44,3.26,Vega de Alatorre,1686078119
482,sassandra,4.95,-6.0833,298.92,87,100,3.55,Sassandra,1686078119
483,rio grande,-32.035,-52.0986,290.94,71,3,4.85,Rio Grande,1686078119
484,nicoya,10.1483,-85.452,304.93,58,100,1.56,Nicoya,1686078120
485,birjand,32.8663,59.2211,298.92,16,58,6.91,Birjand,1686078120
486,nguigmi,14.2495,13.1092,304.93,39,99,4.93,Nguigmi,1686078120
487,trinidad,-14.8333,-64.9,304.41,49,57,1.44,La Santisima Trinidad,1686078073
488,bikenibeu village,1.3673,173.1241,301.68,78,22,6.86,Bikenibeu Village,1686078120
489,kailua-kona,19.6406,-155.9956,300.53,79,57,1.34,Kailua-Kona,1686078121
490,eschweiler,50.8167,6.2833,296.53,74,86,1.99,Eschweiler,1686077998
491,dimitrovgrad,54.2139,49.6184,284.99,76,25,2.97,Dimitrovgrad,1686078031
492,turda,46.5667,23.7833,294.92,73,100,1.23,Turda,1686078121
493,quellon,-43.1167,-73.6167,283.5,69,58,3.21,Quellón,1686078121
494,istgah-e rah ahan-e garmsar,35.2346,52.3094,301.96,33,100,4.4,Īstgāh-e Rāh Āhan-e Garmsār,1686078121
495,zyrya,40.3661,50.2917,293.2,80,65,11.56,Zirǝ,1686078122
496,rota,36.6224,-6.3586,298.22,47,20,8.23,Rota,1686078122
497,bakanas,44.8081,76.2772,299.56,31,90,4.9,Bakanas,1686078122
498,cangzhou,38.3167,116.8667,299.26,20,100,4.75,Cangzhou,1686078115
499,morondava,-20.2833,44.2833,297.05,67,0,4.29,Morondava,1686078122
500,la ronge,55.1001,-105.2842,290.27,94,100,3.09,La Ronge,1686078123
501,zemio,5.0314,25.1361,294.5,94,26,0.66,Zemio,1686078123
502,suoyarvi,62.0833,32.35,282.12,58,98,0.82,Suoyarvi,1686078009
503,tebessa,35.4042,8.1242,292.55,62,1,2.92,Tébessa,1686078123
504,reserva,-24.6503,-50.8506,293.58,46,0,1.16,Reserva,1686078123
505,embi,48.8264,58.1442,297.03,50,13,8.07,Emba,1686078077
506,galesong,-5.3166,119.3661,295.16,67,9,2.77,Galesong,1686078123
507,touros,-5.1989,-35.4608,301.07,71,6,5.52,Touros,1686078122
508,narrabri,-30.3167,149.7833,284.0,86,63,0.45,Narrabri,1686078124
509,crane,31.3974,-102.3501,300.65,35,100,3.26,Crane,1686078124
510,chernyshevsk,52.5243,117.0174,279.96,86,99,2.43,Chernyshevsk,1686078124
511,jiwani,25.05,61.7417,305.29,66,95,2.7,Jiwani,1686078124
512,patterson,37.4716,-121.1297,295.95,57,25,1.73,Patterson,1686078124
513,myrhorod,49.9685,33.6089,289.75,64,100,2.94,Myrhorod,1686077969
514,port augusta,-32.5,137.7667,291.11,77,10,8.65,Port Augusta,1686078125
515,cooper's town,26.8667,-77.5167,298.85,66,100,3.27,Cooper’s Town,1686078125
516,faya-largeau,17.9257,19.1043,306.23,28,8,7.92,Faya-Largeau,1686078125
517,yigo village,13.5361,144.8886,300.55,85,100,5.9,Yigo Village,1686078125
518,arish,31.1316,33.7984,295.15,75,50,3.04,Al ‘Arīsh,1686078125
519,st. john's,47.5649,-52.7093,283.9,97,100,5.66,St. John's,1686077962
520,aykhal,66.0,111.5,273.35,73,0,3.28,Aykhal,1686078126
521,burao,9.5221,45.5336,299.96,49,77,7.66,Burao,1686078126
522,howrah,22.5892,88.3103,305.15,70,20,5.14,Howrah,1686078126
523,bacabal,-4.2917,-44.7917,303.55,69,10,1.18,Bacabal,1686078126
524,sao vicente,-23.9631,-46.3919,297.74,26,1,0.45,São Vicente,1686078126
525,hotan,37.0997,79.9269,296.59,25,100,3.48,Hotan,1686078127
526,sandpoint,48.2766,-116.5533,300.85,29,0,2.57,Sandpoint,1686078127
527,fonte boa,-2.4959,-66.2662,302.63,74,39,1.84,Fonte Boa,1686078127
528,necochea,-38.5473,-58.7368,290.47,79,100,6.23,Necochea,1686078127
529,biltine,14.5333,20.9167,303.0,45,100,8.65,Biltine,1686078127
530,hola,51.5377,23.1902,294.25,79,100,2.47,Hola,1686078127
531,bahia de kino,28.8333,-111.9333,306.99,38,100,4.89,Bahía de Kino,1686078128
532,villa vasquez,19.7411,-71.4464,307.2,51,95,3.96,Villa Vásquez,1686078128
533,miri,4.4148,114.0089,298.19,87,100,2.0,Marabu,1686078129
534,donggang,28.9365,114.2259,293.84,95,19,1.0,Donggang,1686078129
535,northam,51.0333,-4.2167,290.51,72,2,5.03,Northam,1686078129
536,yung shue wan,22.2333,114.1167,301.9,85,88,4.9,Yung Shue Wan,1686078129
537,owando,-0.4819,15.8999,298.7,72,95,1.03,Owando,1686078129
538,zouerate,22.7187,-12.4521,308.75,14,0,5.33,Zouérat,1686078129
539,moyale,3.5167,39.0584,292.87,72,6,3.14,Moyale,1686078130
540,klaksvik,62.2266,-6.589,282.66,85,33,5.37,Klaksvík,1686078130
541,nuku'alofa,-21.1333,-175.2,297.64,81,100,5.41,Nuku'alofa,1686078130
542,formosa do rio preto,-11.0483,-45.1931,305.44,27,0,2.61,Formosa do Rio Preto,1686078130
543,adam,22.3756,57.5233,307.39,17,1,3.49,Adam,1686078130
544,holualoa,19.6228,-155.9522,298.46,79,59,1.34,Holualoa,1686078131
545,oytal,42.9057,73.2697,295.42,29,98,3.9,Oytal,1686078131
546,cabo san lucas,22.8909,-109.9124,306.82,60,0,5.69,Cabo San Lucas,1686078131
547,praia da vitoria,38.7333,-27.0667,290.8,89,100,14.8,Praia da Vitória,1686078131
548,comodoro rivadavia,-45.8667,-67.5,285.08,36,0,15.37,Comodoro Rivadavia,1686078132
549,rio san juan,19.6439,-70.0763,308.24,66,22,6.62,Río San Juan,1686078132
550,crookston,47.7741,-96.6081,305.1,45,0,2.57,Crookston,1686078132
551,ar rass,25.8694,43.4973,305.48,21,81,3.46,Ar Rass,1686078132
552,veraval,20.9,70.3667,302.07,81,0,6.09,Verāval,1686078132
553,fort mcmurray,56.7268,-111.381,291.88,36,0,6.17,Fort McMurray,1686078133
554,mount isa,-20.7333,139.5,286.02,82,80,0.0,Mount Isa,1686078133
555,dampit,-8.2116,112.7493,294.92,99,100,1.45,Dampit,1686078133
556,jiayuguan,39.8167,98.3,291.33,24,2,2.19,Jiayuguan City,1686077911
557,jindabyne,-36.4167,148.6333,283.72,90,100,1.15,Jindabyne,1686078133
558,james city,35.0888,-77.035,300.38,64,48,3.88,James City,1686078133
559,westport,41.1415,-73.3579,298.76,55,0,2.06,Westport,1686078134
560,bequimao,-2.4489,-44.7825,302.25,68,95,1.75,Bequimão,1686078134
561,albertina,-22.2008,-46.6158,293.61,54,0,0.47,Albertina,1686078134
562,camayenne,9.535,-13.6878,301.22,80,51,5.62,Camayenne,1686078134
563,yasnyy,51.0333,59.8742,292.86,60,100,4.53,Yasnyy,1686078134
564,broome,42.2506,-75.833,292.6,56,100,5.66,Broome,1686078134
565,kununurra,-15.7667,128.7333,291.14,88,6,0.0,Kununurra,1686078135
566,kozani,40.3011,21.7864,288.53,67,40,2.06,Kozani,1686078135
567,boyolangu,-8.1181,111.8935,296.87,94,100,2.98,Boyolangu,1686078135
568,hadsund,56.7148,10.1168,289.1,80,0,3.32,Hadsund,1686078135
569,zyryanovsk,49.7386,84.2719,289.76,63,24,1.23,Zyryanovsk,1686078135
570,machico,32.7,-16.7667,296.5,86,40,8.23,Machico,1686078036
571,jawf al maqbabah,13.8378,45.8349,300.56,64,4,1.33,Jawf al Maqbabah,1686078135
572,xunchang,28.4543,104.715,295.59,77,100,0.71,Xunchang,1686078136
573,boca suno,-0.7167,-77.1333,295.2,98,100,0.5,Boca Suno,1686078136
574,bechem,7.0903,-2.025,297.37,92,85,1.92,Bechem,1686078136
575,colonia,50.9333,6.95,297.49,43,0,2.57,Cologne,1686078020
576,rawson,-43.3002,-65.1023,289.14,28,0,11.76,Rawson,1686078136
577,piti village,13.4626,144.6933,301.42,90,100,5.29,Piti Village,1686078136
578,galliano,29.4422,-90.2992,303.15,54,0,2.57,Galliano,1686078137
579,tadine,-21.55,167.8833,293.62,64,86,5.5,Tadine,1686078137
580,nadym,65.5333,72.5167,288.21,52,40,3.44,Nadym,1686077862
581,takefu,35.9039,136.1669,288.62,90,0,1.42,Takefu,1686078137
582,mili,6.0815,171.735,301.68,81,82,8.43,Mili,1686078137
583,noumea,-22.2763,166.4572,293.15,99,86,2.7,Noumea,1686077881
584,san pedro pochutla,15.7333,-96.4667,305.21,57,89,3.12,San Pedro Pochutla,1686078137
585,greenville,35.6127,-77.3663,302.11,57,75,3.6,Greenville,1686077899
586,mamuju,-2.6748,118.8885,298.6,89,42,1.5,Mamuju,1686078138
587,leppavirta,62.4901,27.7826,284.79,50,100,1.25,Leppävirta,1686078138
588,arawa,-6.2132,155.5367,298.11,91,42,1.37,Arawa,1686078138
589,new norfolk,-42.7826,147.0587,284.77,87,21,1.25,New Norfolk,1686078138
590,eastham,41.8301,-69.9739,296.33,62,0,3.6,Eastham,1686078138
591,khandyga,62.6667,135.6,284.58,85,100,0.75,Khandyga,1686078139
592,mil'kovo,55.6078,37.7956,290.37,67,91,3.22,Mil’kovo,1686078139
593,nikel,69.4128,30.222,278.25,61,99,5.21,Nikel,1686078139
594,awjilah,29.1081,21.2869,307.15,18,100,8.87,Awjilah,1686078139
595,pasuquin,18.3328,120.6177,300.02,80,22,1.8,Pasuquin,1686078139
596,kudahuvadhoo,2.6708,72.8944,301.74,76,53,4.84,Kudahuvadhoo,1686078139
597,gushu,31.5598,118.4829,293.83,86,100,1.39,Tai Ping,1686078139
598,quibdo,5.6947,-76.6611,303.9,65,76,1.47,Quibdó,1686078140
599,thayetmyo,19.3167,95.1833,300.58,82,99,3.83,Thayetmyo,1686078140
600,motueka,-41.1333,173.0167,278.2,87,4,2.02,Motueka,1686078140
601,the dalles,45.5946,-121.1787,305.0,26,0,2.68,The Dalles,1686078140
602,fale old settlement,-9.3852,-171.2468,301.64,76,11,5.78,Fale old settlement,1686078140
603,portland,45.5234,-122.6762,301.48,36,0,4.12,Portland,1686078140
604,kelso,46.1468,-122.9084,301.15,42,0,4.63,Kelso,1686078141
605,tidjikja,18.5564,-11.4271,310.42,11,95,3.81,Tidjikja,1686078141
